"roll_no","a1","a2","a3","a4","a5","name","county","total","lat","long","type","sum","l1","l2","l3","l4","l5","l6","l7","l8","l9","l10","l11","l12","l13","l14","l15","l16","l17","l18","l19","l20"
"00752A",1,0,0,0,0,"CENTRAL SENIOR MXD N S","Dublin",208,53.3512,-6.25505,"P",1,0,0,0,0,0,0,0,1,0,0,0,0,0,0,0,0,0,0,0,0
"01795A",1,0,0,0,0,"CENTRAL INFS SCHOOL","Dublin",164,53.351,-6.25492,"P",1,0,0,0,0,0,0,0,1,0,0,0,0,0,0,0,0,0,0,0,0
"03917V",0,0,0,0,1,"NAOMH PADRAIG BOYS","Dublin",119,53.3432,-6.22435,"P",1,0,0,0,0,0,0,0,0,0,0,0,0,0,0,1,0,0,0,0,0
"04992R",0,0,1,0,0,"SCOIL AN CROI NAOFA","Dublin",453,53.3839,-6.27337,"P",1,1,0,0,0,0,0,0,0,0,0,0,0,0,0,0,0,0,0,0,0
"05933G",1,0,0,0,0,"PRESENTATION PRIMARY SCHOOL","Dublin",176,53.3481,-6.27083,"P",1,0,0,0,0,0,0,0,1,0,0,0,0,0,0,0,0,0,0,0,0
"07546J",0,0,0,1,0,"GOLDENBRIDGE CONVENT","Dublin",267,53.3364,-6.31813,"P",1,0,0,0,0,0,0,0,0,0,0,0,0,0,0,0,0,0,0,1,0
"09750S",0,0,0,0,1,"ST JOSEPHS BOYS N S","Dublin",480,53.3094,-6.28109,"P",1,0,0,0,0,0,0,0,0,0,0,0,0,0,0,0,1,0,0,0,0
"09932B",1,0,0,0,0,"STANHOPE ST CONVENT","Dublin",346,53.3524,-6.27975,"P",1,0,0,0,0,0,0,0,0,0,0,1,0,0,0,0,0,0,0,0,0
"10653E",0,0,0,1,0,"CHAPELIZOD N S","Dublin",30,53.35,-6.34376,"P",1,0,0,0,0,0,0,0,0,0,0,0,0,0,0,0,0,1,0,0,0
"11525A",1,0,0,0,0,"ST PATRICKS N SCHOOL","Dublin",488,53.37,-6.25733,"P",1,0,0,0,0,0,0,0,0,0,1,0,0,0,0,0,0,0,0,0,0
"11578V",0,0,0,0,1,"CITY QUAY BOYS N S","Dublin",161,53.3464,-6.25033,"P",1,0,0,0,0,0,0,0,0,0,0,0,1,0,0,0,0,0,0,0,0
"11776C",1,0,0,0,0,"ST LAURENCE O TOOLE JUNIOR BOYS","Dublin",49,53.3509,-6.2415,"P",1,0,0,0,0,0,0,0,0,1,0,0,0,0,0,0,0,0,0,0,0
"11894I",0,0,0,0,1,"SCOIL MHUIRE","Dublin",294,53.328,-6.21121,"P",1,0,0,0,0,0,0,0,0,0,0,0,0,1,0,0,0,0,0,0,0
"12448N",1,0,0,0,0,"GARDINER STREET CONVENT","Dublin",304,53.3579,-6.25793,"P",1,0,0,0,0,0,0,0,1,0,0,0,0,0,0,0,0,0,0,0,0
"12755W",0,0,0,0,1,"KILDARE PLACE  N S","Dublin",221,53.3183,-6.26266,"P",1,0,0,0,0,0,0,0,0,0,0,0,0,0,1,0,0,0,0,0,0
"13611D",0,0,0,1,0,"PRESENTATION PRIMARY SCHOOL","Dublin",307,53.3354,-6.27538,"P",1,0,0,0,0,0,0,0,0,0,0,0,0,0,1,0,0,0,0,0,0
"13612F",0,0,0,1,0,"PRESENTATION PRIMARY SCHOOL","Dublin",576,53.3104,-6.28717,"P",1,0,0,0,0,0,0,0,0,0,0,0,0,0,0,0,1,0,0,0,0
"13815T",0,1,0,0,0,"HOWTH RD MXD N S","Dublin",98,53.364,-6.22518,"P",1,0,0,0,0,0,1,0,0,0,0,0,0,0,0,0,0,0,0,0,0
"14463T",1,0,0,0,0,"ST COLUMBAS N S MXD","Dublin",70,53.3585,-6.2413,"P",1,0,0,0,0,0,0,0,0,1,0,0,0,0,0,0,0,0,0,0,0
"14556D",0,0,0,0,1,"ST ENDAS PRIMARY SCHOOL","Dublin",140,53.3401,-6.26619,"P",1,0,0,0,0,0,0,0,1,0,0,0,0,0,0,0,0,0,0,0,0
"14717B",0,0,0,0,1,"RATHGAR N S","Dublin",95,53.3138,-6.27447,"P",1,0,0,0,0,0,0,0,0,0,0,0,0,0,0,0,1,0,0,0,0
"14917J",0,0,0,0,1,"ZION PARISH PRIMARY SCHOOL","Dublin",96,53.3077,-6.27372,"P",1,0,0,0,0,0,0,0,0,0,0,0,0,0,0,0,1,0,0,0,0
"14980Q",1,0,0,0,0,"GLASNEVIN N S","Dublin",73,53.3724,-6.2665,"P",1,0,0,0,0,0,0,0,0,0,1,0,0,0,0,0,0,0,0,0,0
"15056L",1,0,0,0,0,"S N SAN VINSEANN CAILIN","Dublin",192,53.3572,-6.24568,"P",1,0,0,0,0,0,0,0,0,1,0,0,0,0,0,0,0,0,0,0,0
"15253N",0,0,0,0,1,"ST PATRICKS GIRLS NS","Dublin",164,53.3431,-6.22468,"P",1,0,0,0,0,0,0,0,0,0,0,0,0,0,0,1,0,0,0,0,0
"15618E",0,0,0,0,1,"SANDFORD N S","Dublin",236,53.3206,-6.2472,"P",1,0,0,0,0,0,0,0,0,0,0,0,0,1,0,0,0,0,0,0,0
"15622S",0,0,0,1,0,"ST PATRICKS NS","Dublin",227,53.3483,-6.34241,"P",1,0,0,0,0,0,0,0,0,0,0,0,0,0,0,0,0,1,0,0,0
"15625B",0,0,0,1,0,"ST CATHERINES WEST N S","Dublin",161,53.3329,-6.28226,"P",1,0,0,0,0,0,0,0,0,0,0,0,0,0,0,0,0,0,1,0,0
"15816I",1,0,0,0,0,"ST VINCENTS INF BOYS","Dublin",116,53.3568,-6.24589,"P",1,0,0,0,0,0,0,0,0,1,0,0,0,0,0,0,0,0,0,0,0
"15895H",0,1,0,0,0,"DRUMCONDRA N S","Dublin",61,53.369,-6.24858,"P",1,0,0,0,0,0,0,0,0,0,1,0,0,0,0,0,0,0,0,0,0
"15995L",0,0,0,0,1,"Star of the Sea","Dublin",375,53.3359,-6.21716,"P",1,0,0,0,0,0,0,0,0,0,0,0,0,0,0,1,0,0,0,0,0
"16177F",1,0,0,0,0,"LINDSAY ROAD N S","Dublin",99,53.3647,-6.2638,"P",1,0,0,0,0,0,0,0,0,0,1,0,0,0,0,0,0,0,0,0,0
"16567S",0,0,0,0,1,"ST BRIGIDS CONVENT N S","Dublin",308,53.3341,-6.23965,"P",1,0,0,0,0,0,0,0,0,0,0,0,0,1,0,0,0,0,0,0,0
"16577V",1,0,0,0,0,"ST BRIGIDS CONVENT","Dublin",468,53.3766,-6.27464,"P",1,0,0,0,0,0,0,0,0,0,0,1,0,0,0,0,0,0,0,0,0
"16651H",0,0,0,0,1,"ST CLARES CONVENT N S","Dublin",327,53.3263,-6.27474,"P",1,0,0,0,0,0,0,0,0,0,0,0,0,0,1,0,0,0,0,0,0
"16659A",1,0,0,0,0,"ST COLUMBAS CON G & I","Dublin",391,53.3665,-6.26255,"P",1,0,0,0,0,0,0,0,0,0,1,0,0,0,0,0,0,0,0,0,0
"16695E",1,0,0,0,0,"SCOIL NA MBRATHAR","Dublin",174,53.3503,-6.2758,"P",1,0,0,0,0,0,0,0,1,0,0,0,0,0,0,0,0,0,0,0,0
"16753P",0,1,0,0,0,"ST VINCENT DE PAULS GIRLS SCHOOL","Dublin",294,53.3697,-6.22915,"P",1,0,0,0,0,0,1,0,0,0,0,0,0,0,0,0,0,0,0,0,0
"16754R",0,1,0,0,0,"ST VINCENTS CONVENT INF N S","Dublin",390,53.3698,-6.22945,"P",1,0,0,0,0,0,1,0,0,0,0,0,0,0,0,0,0,0,0,0,0
"16759E",0,1,0,0,0,"S N MHUIRE NA MBRATHAR","Dublin",297,53.3705,-6.23148,"P",1,0,0,0,0,0,1,0,0,0,0,0,0,0,0,0,0,0,0,0,0
"16786H",0,0,0,1,0,"ST BRIGIDS PRIMARY SCHOOL","Dublin",245,53.3385,-6.27397,"P",1,0,0,0,0,0,0,0,1,0,0,0,0,0,0,0,0,0,0,0,0
"16792C",0,1,0,0,0,"ST BRIGIDS CONVENT N S","Dublin",431,53.3783,-6.20474,"P",1,0,0,0,1,0,0,0,0,0,0,0,0,0,0,0,0,0,0,0,0
"16860Q",1,0,0,0,0,"CORPUS CHRISTI N S","Dublin",421,53.3746,-6.25651,"P",1,0,0,0,0,0,0,0,0,0,1,0,0,0,0,0,0,0,0,0,0
"16964F",0,0,0,1,0,"SCOIL MHUIRE OGH 1","Dublin",152,53.329,-6.29493,"P",1,0,0,0,0,0,0,0,0,0,0,0,0,0,0,0,0,0,1,0,0
"16966J",0,0,0,0,1,"SCOIL NAISIUNTA STRATFORD","Dublin",111,53.3094,-6.2739,"P",1,0,0,0,0,0,0,0,0,0,0,0,0,0,0,0,1,0,0,0,0
"16983J",0,0,0,1,0,"S N NAOMH CILLIN","Dublin",23,53.3249,-6.34484,"P",1,0,0,0,0,0,0,0,0,0,0,0,0,0,0,0,0,1,0,0,0
"16988T",1,0,0,0,0,"CHRIST THE KING B N S","Dublin",83,53.3633,-6.28428,"P",1,0,0,0,0,0,0,0,0,0,0,1,0,0,0,0,0,0,0,0,0
"16989V",1,0,0,0,0,"CHRIST THE KING G N S","Dublin",94,53.3634,-6.2849,"P",1,0,0,0,0,0,0,0,0,0,0,1,0,0,0,0,0,0,0,0,0
"17083B",0,0,0,1,0,"S N MUIRE GAN SMAL B","Dublin",323,53.3374,-6.32414,"P",1,0,0,0,0,0,0,0,0,0,0,0,0,0,0,0,0,0,0,1,0
"17110B",1,0,0,0,0,"NAOMH LORCAN O TUATHAIL","Dublin",73,53.3529,-6.24281,"P",1,0,0,0,0,0,0,0,0,1,0,0,0,0,0,0,0,0,0,0,0
"17148D",0,1,0,0,0,"S N EOIN BAISDE G SEN","Dublin",424,53.3634,-6.19651,"P",1,0,0,0,0,0,0,1,0,0,0,0,0,0,0,0,0,0,0,0,0
"17210F",0,0,0,0,1,"CLOCHAR LUGHAIDH CAILIN","Dublin",370,53.3243,-6.26761,"P",1,0,0,0,0,0,0,0,0,0,0,0,0,0,1,0,0,0,0,0,0
"17211H",0,0,0,0,1,"CLOCHAR LUGHAIDH NAOIDH","Dublin",310,53.3244,-6.26663,"P",1,0,0,0,0,0,0,0,0,0,0,0,0,0,1,0,0,0,0,0,0
"17214N",1,0,0,0,0,"St. Vincent's Primary School","Dublin",314,53.3674,-6.27404,"P",1,0,0,0,0,0,0,0,0,0,0,1,0,0,0,0,0,0,0,0,0
"17279S",0,0,0,0,1,"SCOIL MUIRE","Dublin",164,53.334,-6.24004,"P",1,0,0,0,0,0,0,0,0,0,0,0,1,0,0,0,0,0,0,0,0
"17318C",0,0,1,0,0,"SCOIL AN LEINBH IOSA B","Dublin",208,53.3846,-6.24514,"P",1,0,0,0,0,0,0,0,0,0,1,0,0,0,0,0,0,0,0,0,0
"17355I",0,0,0,1,0,"MUIRE NA DEA COIRLE G","Dublin",137,53.3299,-6.31748,"P",1,0,0,0,0,0,0,0,0,0,0,0,0,0,0,0,0,0,0,0,1
"17356K",0,0,0,1,0,"MUIRE NA DEA COIRLE INF","Dublin",149,53.3303,-6.31594,"P",1,0,0,0,0,0,0,0,0,0,0,0,0,0,0,0,0,0,0,1,0
"17367P",1,0,0,0,0,"SCOIL MHUIRE GNS","Dublin",430,53.3714,-6.30769,"P",1,0,1,0,0,0,0,0,0,0,0,0,0,0,0,0,0,0,0,0,0
"17459U",1,0,0,0,0,"CHRIST THE KING I G","Dublin",57,53.3634,-6.28561,"P",1,0,1,0,0,0,0,0,0,0,0,0,0,0,0,0,0,0,0,0,0
"17464N",1,0,0,0,0,"FIONNBARRA NAOFA B.N.S.,","Dublin",135,53.3689,-6.29659,"P",1,0,1,0,0,0,0,0,0,0,0,0,0,0,0,0,0,0,0,0,0
"17465P",1,0,0,0,0,"DOMINICAN CONVENT GIRLS","Dublin",155,53.3698,-6.30681,"P",1,0,1,0,0,0,0,0,0,0,0,0,0,0,0,0,0,0,0,0,0
"17466R",1,0,0,0,0,"ST CATHERINES INFANT SCHOOL","Dublin",182,53.3701,-6.30621,"P",1,0,1,0,0,0,0,0,0,0,0,0,0,0,0,0,0,0,0,0,0
"17603B",0,0,0,1,0,"SCOIL IOSAGAIN","Dublin",101,53.3298,-6.28637,"P",1,0,0,0,0,0,0,0,0,0,0,0,0,0,0,0,0,0,1,0,0
"17683C",0,0,0,1,0,"MUIRE OG 2 LORETO CON","Dublin",215,53.3299,-6.2955,"P",1,0,0,0,0,0,0,0,0,0,0,0,0,0,0,0,0,0,1,0,0
"17730I",0,1,0,0,0,"S N NA LANAI GLASA","Dublin",244,53.3652,-6.18848,"P",1,0,0,0,0,0,0,1,0,0,0,0,0,0,0,0,0,0,0,0,0
"17732M",0,1,0,0,0,"SCOIL CHIARAIN","Dublin",118,53.3737,-6.21391,"P",1,0,0,0,0,0,1,0,0,0,0,0,0,0,0,0,0,0,0,0,0
"17881G",1,0,0,0,0,"SCOIL UI CHONAILL","Dublin",167,53.3582,-6.25023,"P",1,0,0,0,0,0,0,0,0,1,0,0,0,0,0,0,0,0,0,0,0
"17893N",0,0,0,0,1,"SANCTA MARIA C B S","Dublin",81,53.3331,-6.26628,"P",1,0,0,0,0,0,0,0,0,0,0,0,0,0,1,0,0,0,0,0,0
"17912O",1,0,0,0,0,"S N EOIN BOSCO BUACH","Dublin",361,53.3676,-6.31314,"P",1,0,1,0,0,0,0,0,0,0,0,0,0,0,0,0,0,0,0,0,0
"17936F",0,1,0,0,0,"S N EOIN BAISDE B SIN","Dublin",326,53.3636,-6.19845,"P",1,0,0,0,0,0,0,1,0,0,0,0,0,0,0,0,0,0,0,0,0
"17976R",0,1,0,0,0,"SCOIL ASSAIM B","Dublin",272,53.3783,-6.17587,"P",1,0,0,0,0,0,0,1,0,0,0,0,0,0,0,0,0,0,0,0,0
"17977T",0,1,0,0,0,"SCOIL AINE C","Dublin",319,53.3781,-6.17642,"P",1,0,0,0,0,0,0,1,0,0,0,0,0,0,0,0,0,0,0,0,0
"17978V",0,1,0,0,0,"NAISCOIL IDE","Dublin",394,53.3777,-6.17734,"P",1,0,0,0,0,0,0,1,0,0,0,0,0,0,0,0,0,0,0,0,0
"18137D",0,0,1,0,0,"S N NAOMH FEARGAL","Dublin",105,53.3874,-6.30584,"P",1,0,0,1,0,0,0,0,0,0,0,0,0,0,0,0,0,0,0,0,0
"18170B",0,0,0,1,0,"SN MUIRE NA FREASTOGALA","Dublin",190,53.3227,-6.33116,"P",1,0,0,0,0,0,0,0,0,0,0,0,0,0,0,0,0,0,0,0,1
"18171D",0,0,0,1,0,"OUR LADY ASSUMPTION BNS","Dublin",236,53.323,-6.33134,"P",1,0,0,0,0,0,0,0,0,0,0,0,0,0,0,0,0,0,0,0,1
"18205R",0,0,1,0,0,"S N AN PHAROISTE","Dublin",65,53.3881,-6.30255,"P",1,0,0,1,0,0,0,0,0,0,0,0,0,0,0,0,0,0,0,0,0
"18282M",0,0,0,0,1,"SN PAROISTE MAITIU NFA","Dublin",207,53.3371,-6.22019,"P",1,0,0,0,0,0,0,0,0,0,0,0,0,0,0,1,0,0,0,0,0
"18360G",0,1,0,0,0,"SCOIL BHREANDAIN","Dublin",159,53.3841,-6.19521,"P",1,0,0,0,1,0,0,0,0,0,0,0,0,0,0,0,0,0,0,0,0
"18361I",0,1,0,0,0,"S N CAITRIONA C","Dublin",184,53.3848,-6.19717,"P",1,0,0,0,1,0,0,0,0,0,0,0,0,0,0,0,0,0,0,0,0
"18362K",0,1,0,0,0,"S N CAITRIONA NAIONAIN","Dublin",223,53.3849,-6.1967,"P",1,0,0,0,1,0,0,0,0,0,0,0,0,0,0,0,0,0,0,0,0
"18386B",0,0,0,1,0,"MARIST NATIONAL SCHOOL","Dublin",307,53.3258,-6.2923,"P",1,0,0,0,0,0,0,0,0,0,0,0,0,0,0,0,0,0,1,0,0
"18455R",0,0,0,1,0,"OUR LADY OF ASSUMPTION","Dublin",238,53.3233,-6.33183,"P",1,0,0,0,0,0,0,0,0,0,0,0,0,0,0,0,0,0,0,0,1
"18477E",0,0,0,1,0,"SCOIL NA MBRATHAR","Dublin",130,53.3412,-6.27254,"P",1,0,0,0,0,0,0,0,1,0,0,0,0,0,0,0,0,0,0,0,0
"18585H",0,0,0,1,0,"SN BANRION NA NAINGEAL1","Dublin",128,53.3462,-6.36022,"P",1,0,0,0,0,0,0,0,0,0,0,0,0,0,0,0,0,1,0,0,0
"18632N",1,0,0,0,0,"S N EOIN BOSCO NAI BUAC","Dublin",257,53.3681,-6.31347,"P",1,0,1,0,0,0,0,0,0,0,0,0,0,0,0,0,0,0,0,0,0
"18682F",0,0,1,0,0,"ST CANICES B N S","Dublin",431,53.389,-6.29108,"P",1,0,0,1,0,0,0,0,0,0,0,0,0,0,0,0,0,0,0,0,0
"18683H",0,0,1,0,0,"ST CANICES G N S","Dublin",418,53.3892,-6.29581,"P",1,0,0,1,0,0,0,0,0,0,0,0,0,0,0,0,0,0,0,0,0
"18726W",0,1,0,0,0,"S N SEOSAMH NA MBRATHAR","Dublin",167,53.3637,-6.23271,"P",1,0,0,0,0,0,1,0,0,0,0,0,0,0,0,0,0,0,0,0,0
"18817C",0,0,0,0,1,"S N BRIGHDE","Dublin",429,53.3216,-6.25627,"P",1,0,0,0,0,0,0,0,0,0,0,0,0,0,1,0,0,0,0,0,0
"18843D",0,0,0,1,0,"BAINRION NA N-AINGAL 2","Dublin",101,53.3463,-6.36089,"P",1,0,0,0,0,0,0,0,0,0,0,0,0,0,0,0,0,1,0,0,0
"18910P",0,0,1,0,0,"BANTIARNA NA MBUANNA B","Dublin",185,53.3885,-6.26611,"P",1,1,0,0,0,0,0,0,0,0,0,0,0,0,0,0,0,0,0,0,0
"18911R",0,0,1,0,0,"BANTIARNA NA MBUANNA G","Dublin",155,53.3888,-6.26731,"P",1,1,0,0,0,0,0,0,0,0,0,0,0,0,0,0,0,0,0,0,0
"18969C",0,1,0,0,0,"ST EITHNES SENIOR G N S","Dublin",135,53.3893,-6.17981,"P",1,0,0,0,0,0,0,1,0,0,0,0,0,0,0,0,0,0,0,0,0
"19006Q",0,1,0,0,0,"EOIN BAISDE B SOIS","Dublin",327,53.3632,-6.19617,"P",1,0,0,0,0,0,0,1,0,0,0,0,0,0,0,0,0,0,0,0,0
"19007S",0,1,0,0,0,"EOIN BAISDE C NAOIDH","Dublin",259,53.3634,-6.19844,"P",1,0,0,0,0,0,0,1,0,0,0,0,0,0,0,0,0,0,0,0,0
"19015R",0,0,1,0,0,"ST JOSEPHS G N S","Dublin",196,53.3958,-6.30836,"P",1,0,0,1,0,0,0,0,0,0,0,0,0,0,0,0,0,0,0,0,0
"19177U",0,0,0,1,0,"ST PIUS X N S BOYS","Dublin",520,53.3025,-6.30449,"P",1,0,0,0,0,0,0,0,0,0,0,0,0,0,0,0,1,0,0,0,0
"19178W",0,0,0,1,0,"ST PIUS X G N S","Dublin",525,53.3024,-6.30377,"P",1,0,0,0,0,0,0,0,0,0,0,0,0,0,0,0,1,0,0,0,0
"19197D",0,0,1,0,0,"ST KEVINS B N S","Dublin",173,53.3949,-6.30892,"P",1,0,0,1,0,0,0,0,0,0,0,0,0,0,0,0,0,0,0,0,0
"19208F",0,0,1,0,0,"HOLY SPIRIT B N S","Dublin",338,53.3957,-6.26894,"P",1,1,0,0,0,0,0,0,0,0,0,0,0,0,0,0,0,0,0,0,0
"19209H",0,0,1,0,0,"SN AN SPIORAID NAIOMH C","Dublin",273,53.3954,-6.27014,"P",1,1,0,0,0,0,0,0,0,0,0,0,0,0,0,0,0,0,0,0,0
"19242F",0,0,1,0,0,"OUR LADY OF VICTORIES INFANT N S","Dublin",246,53.3885,-6.26564,"P",1,1,0,0,0,0,0,0,0,0,0,0,0,0,0,0,0,0,0,0,0
"19297H",0,1,0,0,0,"CROMCASTLE GREEN B N S","Dublin",218,53.3949,-6.21899,"P",1,0,0,0,1,0,0,0,0,0,0,0,0,0,0,0,0,0,0,0,0
"19298J",0,1,0,0,0,"SCOIL NAIS IDE CAILINI","Dublin",185,53.3946,-6.21903,"P",1,0,0,0,1,0,0,0,0,0,0,0,0,0,0,0,0,0,0,0,0
"19302U",0,0,1,0,0,"SN NA MAIGHDINE MUIRE B","Dublin",131,53.3955,-6.25949,"P",1,1,0,0,0,0,0,0,0,0,0,0,0,0,0,0,0,0,0,0,0
"19303W",0,0,1,0,0,"NA MAIGHDINE MHUIRE","Dublin",127,53.3955,-6.26007,"P",1,1,0,0,0,0,0,0,0,0,0,0,0,0,0,0,0,0,0,0,0
"19308J",0,1,0,0,0,"ST BRIGIDS BOYS N S","Dublin",387,53.3746,-6.19444,"P",1,0,0,0,0,0,0,1,0,0,0,0,0,0,0,0,0,0,0,0,0
"19309L",0,1,0,0,0,"SCOIL NEASAIN","Dublin",251,53.3819,-6.19545,"P",1,0,0,0,1,0,0,0,0,0,0,0,0,0,0,0,0,0,0,0,0
"19395H",1,0,0,0,0,"SCOIL MOBHI","Dublin",259,53.3732,-6.26225,"P",1,0,0,0,0,0,0,0,0,0,1,0,0,0,0,0,0,0,0,0,0
"19430G",0,0,1,0,0,"SCOIL AN TSEACHTAR LAOCH","Dublin",210,53.3924,-6.26384,"P",1,1,0,0,0,0,0,0,0,0,0,0,0,0,0,0,0,0,0,0,0
"19431I",0,0,1,0,0,"ST JOSEPHS JNR","Dublin",144,53.4009,-6.26947,"P",1,1,0,0,0,0,0,0,0,0,0,0,0,0,0,0,0,0,0,0,0
"19480V",0,0,0,0,1,"ST PATRICKS","Dublin",29,53.3389,-6.27085,"P",1,0,0,0,0,0,0,0,1,0,0,0,0,0,0,0,0,0,0,0,0
"19489Q",0,0,1,0,0,"SN NAOMH FINNIN","Dublin",228,53.3804,-6.31115,"P",1,0,0,1,0,0,0,0,0,0,0,0,0,0,0,0,0,0,0,0,0
"19496N",0,1,0,0,0,"SCOIL FHIACHRA SOISIR","Dublin",686,53.387,-6.22568,"P",1,0,0,0,1,0,0,0,0,0,0,0,0,0,0,0,0,0,0,0,0
"19546C",0,0,1,0,0,"ST OLIVER PLUNKETT N S","Dublin",148,53.3816,-6.29882,"P",1,0,0,1,0,0,0,0,0,0,0,0,0,0,0,0,0,0,0,0,0
"19583I",0,0,1,0,0,"ST JOSEPHS SENIOR N S","Dublin",129,53.4011,-6.27094,"P",1,1,0,0,0,0,0,0,0,0,0,0,0,0,0,0,0,0,0,0,0
"19589U",0,0,0,1,0,"GAELSCOIL INSE CHOR","Dublin",236,53.3438,-6.31087,"P",1,0,0,0,0,0,0,0,0,0,0,0,0,0,0,0,0,0,0,1,0
"19619D",0,0,1,0,0,"ST MALACHYS NS","Dublin",135,53.3822,-6.29885,"P",1,0,0,1,0,0,0,0,0,0,0,0,0,0,0,0,0,0,0,0,0
"19628E",0,1,0,0,0,"ST FIACHRAS SEN N S","Dublin",619,53.3874,-6.22344,"P",1,0,0,0,1,0,0,0,0,0,0,0,0,0,0,0,0,0,0,0,0
"19661C",0,0,0,1,0,"ST GABRIELS NS","Dublin",210,53.3427,-6.34635,"P",1,0,0,0,0,0,0,0,0,0,0,0,0,0,0,0,0,1,0,0,0
"19662E",0,0,0,1,0,"ST MICHAELS NS","Dublin",279,53.3431,-6.34712,"P",1,0,0,0,0,0,0,0,0,0,0,0,0,0,0,0,0,1,0,0,0
"19663G",0,0,0,1,0,"ST RAPHAELS NS","Dublin",228,53.3429,-6.34677,"P",1,0,0,0,0,0,0,0,0,0,0,0,0,0,0,0,0,1,0,0,0
"19669S",0,0,0,1,0,"LADY OF GOOD COUNSEL NS","Dublin",167,53.3297,-6.31649,"P",1,0,0,0,0,0,0,0,0,0,0,0,0,0,0,0,0,0,0,0,1
"19727G",0,0,0,0,1,"ST MARYS CENTRAL N S","Dublin",250,53.3208,-6.23796,"P",1,0,0,0,0,0,0,0,0,0,0,0,0,1,0,0,0,0,0,0,0
"19764M",0,0,0,1,0,"OUR LADY OF WAYSIDE N S","Dublin",122,53.3311,-6.33694,"P",1,0,0,0,0,0,0,0,0,0,0,0,0,0,0,0,0,1,0,0,0
"19774P",1,0,0,0,0,"ST JOSEPHS MXD N S","Dublin",170,53.3542,-6.22783,"P",1,0,0,0,0,0,1,0,0,0,0,0,0,0,0,0,0,0,0,0,0
"19831B",1,0,0,0,0,"SCOIL CHAOIMHIN","Dublin",46,53.3511,-6.25673,"P",1,0,0,0,0,0,0,0,1,0,0,0,0,0,0,0,0,0,0,0,0
"19837N",0,0,0,1,0,"DRIMNAGH CASTLE CBS N S","Dublin",444,53.3241,-6.32996,"P",1,0,0,0,0,0,0,0,0,0,0,0,0,0,0,0,0,0,0,0,1
"19845M",0,0,1,0,0,"NORTH DUBLIN NS PROJECT","Dublin",228,53.3817,-6.26733,"P",1,1,0,0,0,0,0,0,0,0,0,0,0,0,0,0,0,0,0,0,0
"19889J",0,0,0,1,0,"SCOIL COLM","Dublin",119,53.3204,-6.30651,"P",1,0,0,0,0,0,0,0,0,0,0,0,0,0,0,0,0,0,0,0,1
"19896G",0,0,0,0,1,"SCOIL CAITRIONA NA MBRAITHRE","Dublin",91,53.336,-6.24486,"P",1,0,0,0,0,0,0,0,0,0,0,0,1,0,0,0,0,0,0,0,0
"19907I",0,0,0,1,0,"GAELSCOIL MOLOGA","Dublin",216,53.3171,-6.2844,"P",1,0,0,0,0,0,0,0,0,0,0,0,0,0,0,0,1,0,0,0,0
"19919P",0,1,0,0,0,"ST DAVIDS N S","Dublin",329,53.3856,-6.21627,"P",1,0,0,0,1,0,0,0,0,0,0,0,0,0,0,0,0,0,0,0,0
"19920A",0,1,0,0,0,"ST JOHN OF GOD N S","Dublin",178,53.3894,-6.21635,"P",1,0,0,0,1,0,0,0,0,0,0,0,0,0,0,0,0,0,0,0,0
"19924I",0,0,0,1,0,"HAROLDS CROSS N S","Dublin",271,53.3171,-6.28479,"P",1,0,0,0,0,0,0,0,0,0,0,0,0,0,0,0,1,0,0,0,0
"19926M",1,0,0,0,0,"GAELSCOIL CHOLAISTE MHUIRE","Dublin",192,53.3534,-6.26113,"P",1,0,0,0,0,0,0,0,1,0,0,0,0,0,0,0,0,0,0,0,0
"19928Q",0,0,0,0,1,"RANELAGH MULTI DENOM NS","Dublin",236,53.3266,-6.25673,"P",1,0,0,0,0,0,0,0,0,0,0,0,0,0,1,0,0,0,0,0,0
"19929S",0,0,1,0,0,"ST BRIGIDS SENIOR GIRLS","Dublin",178,53.386,-6.30917,"P",1,0,0,1,0,0,0,0,0,0,0,0,0,0,0,0,0,0,0,0,0
"19933J",0,0,0,1,0,"SCOIL TREASA NAOFA","Dublin",148,53.3342,-6.2784,"P",1,0,0,0,0,0,0,0,0,0,0,0,0,0,0,0,0,0,1,0,0
"19943M",0,0,0,1,0,"ST DAMIENS NS","Dublin",247,53.314,-6.32033,"P",1,0,0,0,0,0,0,0,0,0,0,0,0,0,0,0,0,0,0,0,1
"19946S",1,0,0,0,0,"RUTLAND STREET N S","Dublin",130,53.3542,-6.25156,"P",1,0,0,0,0,0,0,0,0,1,0,0,0,0,0,0,0,0,0,0,0
"19981U",0,1,0,0,0,"ST MARYS N S","Dublin",221,53.3639,-6.23732,"P",1,0,0,0,0,0,1,0,0,0,0,0,0,0,0,0,0,0,0,0,0
"20012S",0,0,0,1,0,"GRIFFITH BARRACKS MULTI D SCHOOL","Dublin",242,53.3309,-6.27898,"P",1,0,0,0,0,0,0,0,0,0,0,0,0,0,0,0,0,0,1,0,0
"20014W",0,0,0,1,0,"ST AGNES N S","Dublin",273,53.3191,-6.30631,"P",1,0,0,0,0,0,0,0,0,0,0,0,0,0,0,0,0,0,0,0,1
"20015B",0,0,1,0,0,"GAELSCOIL BHAILE MUNNA","Dublin",186,53.3978,-6.25488,"P",1,1,0,0,0,0,0,0,0,0,0,0,0,0,0,0,0,0,0,0,0
"20029M",0,0,1,0,0,"ST BRIGIDS INFANT N S","Dublin",205,53.3863,-6.30836,"P",1,0,0,1,0,0,0,0,0,0,0,0,0,0,0,0,0,0,0,0,0
"20035H",1,0,0,0,0,"ST GABRIELS N S","Dublin",143,53.3536,-6.28971,"P",1,0,1,0,0,0,0,0,0,0,0,0,0,0,0,0,0,0,0,0,0
"20047O",1,0,0,0,0,"GAELSCOIL BHARRA","Dublin",210,53.3645,-6.28849,"P",1,0,1,0,0,0,0,0,0,0,0,0,0,0,0,0,0,0,0,0,0
"20048Q",0,0,0,0,1,"GAELSCOIL LIOS NA NOG","Dublin",238,53.3219,-6.25582,"P",1,0,0,0,0,0,0,0,0,0,0,0,0,0,1,0,0,0,0,0,0
"20052H",0,1,0,0,0,"GAELSCOIL CHOLMCILLE","Dublin",230,53.3958,-6.22963,"P",1,0,0,0,1,0,0,0,0,0,0,0,0,0,0,0,0,0,0,0,0
"20059V",0,0,1,0,0,"MOTHER OF DIVINE GRACE","Dublin",450,53.3861,-6.2865,"P",1,0,0,1,0,0,0,0,0,0,0,0,0,0,0,0,0,0,0,0,0
"20064O",0,1,0,0,0,"OUR LADY OF CONSOLATION NS","Dublin",244,53.3741,-6.21589,"P",1,0,0,0,0,0,1,0,0,0,0,0,0,0,0,0,0,0,0,0,0
"20091R",1,0,0,0,0,"ST PETERS NS","Dublin",456,53.3615,-6.2756,"P",1,0,0,0,0,0,0,0,0,0,0,1,0,0,0,0,0,0,0,0,0
"20092T",0,0,0,1,0,"ST ULTANS NS","Dublin",406,53.3366,-6.37293,"P",1,0,0,0,0,0,0,0,0,0,0,0,0,0,0,0,0,1,0,0,0
"20103V",0,0,0,0,1,"JOHN SCOTTUS NS","Dublin",252,53.3342,-6.23636,"P",1,0,0,0,0,0,0,0,0,0,0,0,0,1,0,0,0,0,0,0,0
"20104A",0,0,0,1,0,"ST AUDOENS NS","Dublin",185,53.3441,-6.2734,"P",1,0,0,0,0,0,0,0,1,0,0,0,0,0,0,0,0,0,0,0,0
"20131D",1,0,0,0,0,"EDUCATE TOGETHER NS","Dublin",380,53.3551,-6.28444,"P",1,0,0,0,0,0,0,0,0,0,0,1,0,0,0,0,0,0,0,0,0
"20139T",0,0,0,1,0,"INCHICORE NS","Dublin",219,53.3412,-6.31914,"P",1,0,0,0,0,0,0,0,0,0,0,0,0,0,0,0,0,0,0,1,0
"20152L",1,0,0,0,0,"NORTH DUBLIN MUSLIM NS PROJECT","Dublin",228,53.3634,-6.30079,"P",1,0,1,0,0,0,0,0,0,0,0,0,0,0,0,0,0,0,0,0,0
"20168D",1,0,0,0,0,"GLASNEVIN EDUCATE TOGETHER NS","Dublin",230,53.3763,-6.26801,"P",1,0,0,0,0,0,0,0,0,0,1,0,0,0,0,0,0,0,0,0,0
"20220C",0,0,1,0,0,"GAELSCOIL UI EARCAIN","Dublin",235,53.3902,-6.31024,"P",1,0,0,1,0,0,0,0,0,0,0,0,0,0,0,0,0,0,0,0,0
"20228S",1,0,0,0,0,"ST LAURENCE O TOOLES GIRLS SCHOOL","Dublin",86,53.353,-6.24271,"P",1,0,0,0,0,0,0,0,0,1,0,0,0,0,0,0,0,0,0,0,0
"20338C",0,0,1,0,0,"Holy Child National School","Dublin",426,53.3857,-6.24415,"P",1,1,0,0,0,0,0,0,0,0,0,0,0,0,0,0,0,0,0,0,0
"20391G",0,0,0,1,0,"De La Salle National School","Dublin",279,53.3447,-6.35318,"P",1,0,0,0,0,0,0,0,0,0,0,0,0,0,0,0,0,1,0,0,0
"20397S",0,0,0,1,0,"St Louise de Marillac Primary School","Dublin",354,53.348,-6.3586,"P",1,0,0,0,0,0,0,0,0,0,0,0,0,0,0,0,0,1,0,0,0
"20429F",0,0,0,1,0,"ST. JAMES'S PRIMARY SCHOOL","Dublin",243,53.3405,-6.28924,"P",1,0,0,0,0,0,0,0,0,0,0,0,0,0,0,0,0,0,1,0,0
"20430N",0,0,0,0,1,"Portobello Educate Together School","Dublin",41,53.3316,-6.25654,"P",1,0,0,0,0,0,0,0,0,0,0,0,0,0,1,0,0,0,0,0,0
"20436C",1,0,0,0,0,"St Mary's Primary School","Dublin",174,53.3585,-6.2631,"P",1,0,0,0,0,0,0,0,0,0,0,1,0,0,0,0,0,0,0,0,0
"60290B",0,1,0,0,0,"St Pauls College","Dublin",579,53.3731344706379,-6.19325663388262,"PP",1,0,0,0,0,0,0,1,0,0,0,0,0,0,0,0,0,0,0,0,0
"60390F",0,1,0,0,0,"St Josephs C.B.S.","Dublin",300,53.3647758010651,-6.23336222401379,"PP",1,0,0,0,0,0,1,0,0,0,0,0,0,0,0,0,0,0,0,0,0
"60400F",1,0,0,0,0,"St Vincents C.B.S. Glasnevin","Dublin",401,53.3682602290781,-6.27497102359508,"PP",1,0,0,0,0,0,0,0,0,0,0,1,0,0,0,0,0,0,0,0,0
"60410I",0,0,0,1,0,"C.B.S. James Street","Dublin",189,53.3403600187723,-6.28944570180634,"PP",1,0,0,0,0,0,0,0,0,0,0,0,0,0,0,0,0,0,1,0,0
"60420L",0,1,0,0,0,"Árdscoil Rís","Dublin",527,53.369235334697,-6.22806917472318,"PP",1,0,0,0,0,0,1,0,0,0,0,0,0,0,0,0,0,0,0,0,0
"60430O",1,0,0,0,0,"St Pauls C.B.S.","Dublin",246,53.3505950241084,-6.27569963859794,"PP",1,0,0,0,0,0,0,0,1,0,0,0,0,0,0,0,0,0,0,0,0
"60440R",1,0,0,0,0,"O'Connell School","Dublin",277,53.3582392169916,-6.25080167910204,"PP",1,0,0,0,0,0,0,0,0,1,0,0,0,0,0,0,0,0,0,0,0
"60450U",1,0,0,0,0,"Coláiste Mhuire","Dublin",228,53.3642600871122,-6.29992061785577,"PP",1,0,1,0,0,0,0,0,0,0,0,0,0,0,0,0,0,0,0,0,0
"60470D",0,0,0,0,1,"Christian Brothers, Synge St.","Dublin",233,53.3334938625022,-6.26822308283384,"PP",1,0,0,0,0,0,0,0,0,0,0,0,0,0,1,0,0,0,0,0,0
"60471F",0,1,0,0,0,"St. David's C.B.S.","Dublin",489,53.3810317113111,-6.21764503947068,"PP",1,0,0,0,1,0,0,0,0,0,0,0,0,0,0,0,0,0,0,0,0
"60480G",0,0,0,1,0,"Meanscoil Iognáid Rís","Dublin",683,53.324209726885,-6.33372275214717,"PP",1,0,0,0,0,0,0,0,0,0,0,0,0,0,0,0,0,0,0,0,1
"60481I",0,0,1,0,0,"St. Aidan's C.B.S.","Dublin",676,53.3843543466451,-6.25212073686692,"PP",1,1,0,0,0,0,0,0,0,0,0,0,0,0,0,0,0,0,0,0,0
"60490J",0,0,0,0,1,"C.B.S. Westland Row","Dublin",123,53.3428025938564,-6.24907636363725,"PP",1,0,0,0,0,0,0,0,0,0,0,0,1,0,0,0,0,0,0,0,0
"60491L",1,0,0,0,0,"St Declan's College","Dublin",644,53.3668389029041,-6.30306306090343,"PP",1,0,1,0,0,0,0,0,0,0,0,0,0,0,0,0,0,0,0,0,0
"60500J",0,0,0,0,1,"Marian College","Dublin",452,53.3331366487583,-6.22678903886313,"PP",1,0,0,0,0,0,0,0,0,0,0,0,0,1,0,0,0,0,0,0,0
"60510M",0,0,0,1,0,"St Johns College De La Salle","Dublin",399,53.3439553820259,-6.35597177371346,"PP",1,0,0,0,0,0,0,0,0,0,0,0,0,0,0,0,0,1,0,0,0
"60511O",0,0,1,0,0,"Beneavin De La Salle College","Dublin",486,53.3892218387107,-6.28661471258093,"PP",1,0,0,1,0,0,0,0,0,0,0,0,0,0,0,0,0,0,0,0,0
"60520P",1,0,0,0,0,"Belvedere College S.J","Dublin",1,53.355511065178,-6.26211834757793,"PP",1,0,0,0,0,0,0,0,1,0,0,0,0,0,0,0,0,0,0,0,0
"60530S",0,0,0,0,1,"Gonzaga College","Dublin",547,53.3168190614996,-6.24939017038077,"PP",1,0,0,0,0,0,0,0,0,0,0,0,0,0,1,0,0,0,0,0,0
"60540V",0,0,0,0,1,"Catholic University School","Dublin",439,53.3352997956684,-6.25586937057558,"PP",1,0,0,0,0,0,0,0,0,0,0,0,1,0,0,0,0,0,0,0,0
"60550B",0,1,0,0,0,"Chanel College","Dublin",568,53.3880157065719,-6.20397511585537,"PP",1,0,0,0,1,0,0,0,0,0,0,0,0,0,0,0,0,0,0,0,0
"60560E",0,0,0,0,1,"St Marys College","Dublin",430,53.3274274866831,-6.26693784080469,"PP",1,0,0,0,0,0,0,0,0,0,0,0,0,0,1,0,0,0,0,0,0
"60561G",0,0,0,0,1,"St Michaels College","Dublin",594,53.3200368911445,-6.21669198725872,"PP",1,0,0,0,0,0,0,0,0,0,0,0,0,1,0,0,0,0,0,0,0
"60562I",0,0,0,1,0,"Templeogue College","Dublin",693,53.3041614564731,-6.31198600664989,"PP",1,0,0,0,0,0,0,0,0,0,0,0,0,0,0,0,0,0,0,0,1
"60570H",0,0,0,1,0,"Terenure College","Dublin",686,53.3042501891308,-6.29737068249678,"PP",1,0,0,0,0,0,0,0,0,0,0,0,0,0,0,0,1,0,0,0,0
"60571J",0,0,1,0,0,"Patrician College","Dublin",183,53.3840970793018,-6.31800770679369,"PP",1,0,0,1,0,0,0,0,0,0,0,0,0,0,0,0,0,0,0,0,0
"60581M",0,0,1,0,0,"St Kevins College","Dublin",517,53.3854496293479,-6.27738723082867,"PP",1,1,0,0,0,0,0,0,0,0,0,0,0,0,0,0,0,0,0,0,0
"60590N",0,0,0,0,1,"St Conleths College","Dublin",244,53.3279637016606,-6.24034785262477,"PP",1,0,0,0,0,0,0,0,0,0,0,0,0,1,0,0,0,0,0,0,0
"60640C",0,0,0,0,1,"Sandford Park School Ltd","Dublin",241,53.3221955885446,-6.25019058611658,"PP",1,0,0,0,0,0,0,0,0,0,0,0,0,0,1,0,0,0,0,0,0
"60660I",0,0,0,0,1,"St Patricks Cathedral G.S","Dublin",122,53.3390687019329,-6.27155549141106,"PP",1,0,0,0,0,0,0,0,1,0,0,0,0,0,0,0,0,0,0,0,0
"60670L",0,0,0,0,1,"The High School","Dublin",766,53.3057907780258,-6.27327543290119,"PP",1,0,0,0,0,0,0,0,0,0,0,0,0,0,0,0,1,0,0,0,0
"60690R",0,1,0,0,0,"Dominican College","Dublin",713,53.3743379360534,-6.24927027540054,"PP",1,0,0,0,0,0,0,0,0,0,1,0,0,0,0,0,0,0,0,0,0
"60700R",1,0,0,0,0,"Scoil Chaitriona","Dublin",422,53.3746182956238,-6.26230195952475,"PP",1,0,0,0,0,0,0,0,0,0,1,0,0,0,0,0,0,0,0,0,0
"60710U",0,0,0,0,1,"Muckross Park College","Dublin",712,53.3216697618392,-6.24254296023155,"PP",1,0,0,0,0,0,0,0,0,0,0,0,0,1,0,0,0,0,0,0,0
"60720A",0,0,0,1,0,"Saint Dominic's Secondary School","Dublin",373,53.3447140091685,-6.34714321530894,"PP",1,0,0,0,0,0,0,0,0,0,0,0,0,0,0,0,0,1,0,0,0
"60731F",1,0,0,0,0,"St Dominics College","Dublin",875,53.3713630503444,-6.30715040137771,"PP",1,0,1,0,0,0,0,0,0,0,0,0,0,0,0,0,0,0,0,0,0
"60732H",0,0,0,1,0,"Caritas College","Dublin",280,53.3490286153341,-6.3596059615493,"PP",1,0,0,0,0,0,0,0,0,0,0,0,0,0,0,0,0,1,0,0,0
"60741I",0,0,1,0,0,"St Michaels Secondary School","Dublin",591,53.3871988266877,-6.30162182277041,"PP",1,0,0,1,0,0,0,0,0,0,0,0,0,0,0,0,0,0,0,0,0
"60750J",0,1,0,0,0,"Holy Faith Secondary School","Dublin",637,53.3601865770904,-6.19749999006447,"PP",1,0,0,0,0,0,0,1,0,0,0,0,0,0,0,0,0,0,0,0,0
"60770P",1,0,0,0,0,"St Mary's Secondary School","Dublin",723,53.3761892537946,-6.27271196769974,"PP",1,0,0,0,0,0,0,0,0,0,1,0,0,0,0,0,0,0,0,0,0
"60791A",0,1,0,0,0,"St Marys Secondary School","Dublin",390,53.3790008146791,-6.20207033054425,"PP",1,0,0,0,1,0,0,0,0,0,0,0,0,0,0,0,0,0,0,0,0
"60792C",0,0,0,1,0,"Presentation College","Dublin",278,53.3359780105977,-6.27780584551364,"PP",1,0,0,0,0,0,0,0,0,0,0,0,0,0,0,0,0,0,1,0,0
"60800V",0,0,0,1,0,"Loreto College","Dublin",459,53.3294521505257,-6.29770287236813,"PP",1,0,0,0,0,0,0,0,0,0,0,0,0,0,0,0,0,0,1,0,0
"60820E",0,0,0,0,1,"Loreto College","Dublin",577,53.3368254553183,-6.25634758010657,"PP",1,0,0,0,0,0,0,0,0,0,0,0,1,0,0,0,0,0,0,0,0
"60840K",0,1,0,0,0,"Maryfield College","Dublin",666,53.3759808823011,-6.23513738231243,"PP",1,0,0,0,0,0,1,0,0,0,0,0,0,0,0,0,0,0,0,0,0
"60841M",0,0,0,1,0,"Rosary College","Dublin",173,53.3186819228659,-6.30746600341025,"PP",1,0,0,0,0,0,0,0,0,0,0,0,0,0,0,0,0,0,0,0,1
"60843Q",1,0,0,0,0,"St Josephs Secondary School","Dublin",228,53.3526502114341,-6.28174438058748,"PP",1,0,0,0,0,0,0,0,0,0,0,1,0,0,0,0,0,0,0,0,0
"60851P",0,0,0,1,0,"Assumption Secondary School","Dublin",338,53.3222303934476,-6.33162371914272,"PP",1,0,0,0,0,0,0,0,0,0,0,0,0,0,0,0,0,0,0,0,1
"60852R",0,0,1,0,0,"Mater Christi","Dublin",202,53.3921172084296,-6.32280251724691,"PP",1,0,0,1,0,0,0,0,0,0,0,0,0,0,0,0,0,0,0,0,0
"60853T",1,0,0,0,0,"Mount Carmel Secondary School","Dublin",323,53.3520158904415,-6.2683281532226,"PP",1,0,0,0,0,0,0,0,1,0,0,0,0,0,0,0,0,0,0,0,0
"60870T",0,1,0,0,0,"Our Lady Of Mercy College","Dublin",375,53.3867348766583,-6.23072423466807,"PP",1,0,0,0,1,0,0,0,0,0,0,0,0,0,0,0,0,0,0,0,0
"60871V",0,1,0,0,0,"Mercy College Coolock","Dublin",422,53.386043302543,-6.19831638108714,"PP",1,0,0,0,1,0,0,0,0,0,0,0,0,0,0,0,0,0,0,0,0
"60872A",0,0,0,1,0,"Mercy Secondary School","Dublin",174,53.3367697461106,-6.32200311235236,"PP",1,0,0,0,0,0,0,0,0,0,0,0,0,0,0,0,0,0,0,1,0
"60890C",0,0,0,0,1,"St Louis High School","Dublin",656,53.3213940084283,-6.27039412752014,"PP",1,0,0,0,0,0,0,0,0,0,0,0,0,0,1,0,0,0,0,0,0
"60892G",0,0,0,0,1,"The Teresian School","Dublin",188,53.3149387500424,-6.22794887031706,"PP",1,0,0,0,0,0,0,0,0,0,0,0,0,1,0,0,0,0,0,0,0
"60910F",0,0,0,0,1,"Alexandra College","Dublin",443,53.3104926300193,-6.24999421890105,"PP",1,0,0,0,0,0,0,0,0,0,0,0,0,0,1,0,0,0,0,0,0
"60990G",0,0,0,1,0,"Ardscoíl Éanna (Meanscoil Chroimghlinne)","Dublin",137,53.3271258067458,-6.31295551601389,"PP",1,0,0,0,0,0,0,0,0,0,0,0,0,0,0,0,0,0,0,0,1
"60991I",0,0,0,1,0,"Our Lady Of Mercy Secondary School","Dublin",282,53.3309524051997,-6.31921426339717,"PP",1,0,0,0,0,0,0,0,0,0,0,0,0,0,0,0,0,0,0,0,1
"61020A",0,0,0,0,1,"Stratford College","Dublin",97,53.3096969029001,-6.27431805377512,"PP",1,0,0,0,0,0,0,0,0,0,0,0,0,0,0,0,1,0,0,0,0
"68071G",0,0,0,0,1,"John Scottus Secondary School","Dublin",136,53.3253798930974,-6.24063432748579,"PP",1,0,0,0,0,0,0,0,0,0,0,0,0,1,0,0,0,0,0,0,0
"70150O",1,0,0,0,0,"Cabra Community College","Dublin",166,53.3687711476439,-6.2942569695841,"PP",1,0,1,0,0,0,0,0,0,0,0,0,0,0,0,0,0,0,0,0,0
"70160R",0,0,0,1,0,"St. Kevins College","Dublin",306,53.3273139166874,-6.29459090106559,"PP",1,0,0,0,0,0,0,0,0,0,0,0,0,0,0,0,0,0,1,0,0
"70170U",0,0,0,1,0,"Crumlin College Of Further Education","Dublin",666,53.3290775457069,-6.30336777958732,"PP",1,0,0,0,0,0,0,0,0,0,0,0,0,0,0,0,0,0,1,0,0
"70180A",0,0,1,0,0,"Coláiste Eoin","Dublin",131,53.3880457638195,-6.30937432656324,"PP",1,0,0,1,0,0,0,0,0,0,0,0,0,0,0,0,0,0,0,0,0
"70190D",0,0,1,0,0,"Colaiste Ide College of Further Education","Dublin",723,53.3864798943062,-6.31175113194084,"PP",1,0,0,1,0,0,0,0,0,0,0,0,0,0,0,0,0,0,0,0,0
"70200D",0,0,0,0,1,"Ringsend College","Dublin",155,53.3437982683252,-6.22403405950902,"PP",1,0,0,0,0,0,0,0,0,0,0,0,0,0,0,1,0,0,0,0,0
"70220J",0,0,0,1,0,"Inchicore College of Further Education","Dublin",801,53.3402841770857,-6.31305623438453,"PP",1,0,0,0,0,0,0,0,0,0,0,0,0,0,0,0,0,0,0,1,0
"70230M",0,1,0,0,0,"Killester College of Further Education","Dublin",344,53.3712648999201,-6.20829848988072,"PP",1,0,0,0,0,0,1,0,0,0,0,0,0,0,0,0,0,0,0,0,0
"70240P",0,0,0,1,0,"Kylemore College","Dublin",343,53.3451180146629,-6.35166245260996,"PP",1,0,0,0,0,0,0,0,0,0,0,0,0,0,0,0,0,1,0,0,0
"70250S",0,1,0,0,0,"Marino College","Dublin",626,53.3644078429426,-6.23157467191189,"PP",1,0,0,0,0,0,1,0,0,0,0,0,0,0,0,0,0,0,0,0,0
"70280E",0,0,0,0,1,"Rathmines College","Dublin",676,53.3240832159584,-6.26498718022355,"PP",1,0,0,0,0,0,0,0,0,0,0,0,0,0,1,0,0,0,0,0,0
"70290H",0,0,0,0,1,"Ballsbridge College of Further Education","Dublin",449,53.3299632598731,-6.23140750814397,"PP",1,0,0,0,0,0,0,0,0,0,0,0,0,1,0,0,0,0,0,0,0
"70300H",0,0,0,1,0,"Pearse College - Colaiste an Phiarsaigh","Dublin",711,53.3265073395246,-6.29474315825978,"PP",1,0,0,0,0,0,0,0,0,0,0,0,0,0,0,0,0,0,1,0,0
"70310K",0,0,1,0,0,"Plunket College","Dublin",462,53.3794452772524,-6.24826418975054,"PP",1,0,0,0,0,0,0,0,0,0,1,0,0,0,0,0,0,0,0,0,0
"70320N",1,0,0,0,0,"Whitehall House Senior College","Dublin",575,53.3718520986438,-6.26636711464997,"PP",1,0,0,0,0,0,0,0,0,0,1,0,0,0,0,0,0,0,0,0,0
"70321P",0,0,1,0,0,"Margaret Aylward Community College","Dublin",220,53.3840038725306,-6.24050184587978,"PP",1,0,0,0,0,0,1,0,0,0,0,0,0,0,0,0,0,0,0,0,0
"70330Q",0,1,0,0,0,"Coláiste Dhúlaigh","Dublin",326,53.396806707873,-6.21312174509288,"PP",1,0,0,0,1,0,0,0,0,0,0,0,0,0,0,0,0,0,0,0,0
"70340T",0,0,0,0,1,"Liberties College","Dublin",797,53.3408013971842,-6.27116978284985,"PP",1,0,0,0,0,0,0,0,1,0,0,0,0,0,0,0,0,0,0,0,0
"70342A",0,0,0,1,0,"Ballyfermot College of Further Education","Dublin",1456,53.3401434399924,-6.35207358710687,"PP",1,0,0,0,0,0,0,0,0,0,0,0,0,0,0,0,0,1,0,0,0
"76077O",1,0,0,0,0,"Larkin Community College","Dublin",441,53.352257842671,-6.25779014507177,"PP",1,0,0,0,0,0,0,0,1,0,0,0,0,0,0,0,0,0,0,0,0
"76092K",0,0,0,1,0,"PRESENTATION COLLEGE","Dublin",308,53.3109648064838,-6.28684048447743,"PP",1,0,0,0,0,0,0,0,0,0,0,0,0,0,0,0,1,0,0,0,0
"81002K",0,1,0,0,0,"Mount Temple Comprehensive School","Dublin",880,53.3686791822101,-6.22269840013051,"PP",1,0,0,0,0,0,1,0,0,0,0,0,0,0,0,0,0,0,0,0,0
"81017A",0,0,1,0,0,"TRINITY COMPREHENSIVE SCHOOL","Dublin",395,53.393174140571,-6.26226747625183,"PP",1,1,0,0,0,0,0,0,0,0,0,0,0,0,0,0,0,0,0,0,0
"91344V",0,1,0,0,0,"Rosmini Community School","Dublin",248,53.3712110844464,-6.24501109790629,"PP",1,0,0,0,0,0,0,0,0,0,1,0,0,0,0,0,0,0,0,0,0
